City_ID,City,Lat,Lng,Max Temp,Humidity,Cloudiness,Wind Speed,Country,Date
0,puerto colombia,10.9878,-74.9547,82.49,77,6,26.55,CO,1707704902
1,stanley,54.868,-1.6985,37.27,90,20,4.61,GB,1707704512
2,iaciara,-14.0958,-46.6317,66.92,97,100,2.93,BR,1707704902
3,thompson,55.7435,-97.8558,12.36,85,100,0.0,CA,1707704217
4,cabinda,-5.55,12.2,77.14,88,100,6.91,AO,1707704902
5,weno,7.4515,151.8468,85.95,70,40,12.66,FM,1707704902
6,west island,-12.1568,96.8225,85.98,74,40,10.36,CC,1707704500
7,porto novo,6.4965,2.6036,84.02,90,6,5.86,BJ,1707704529
8,papatowai,-46.5619,169.4708,63.16,56,87,13.4,NZ,1707704495
9,panaba,21.2833,-88.2667,76.55,80,0,15.93,MX,1707704903
10,hotan,37.0997,79.9269,34.95,38,100,2.73,CN,1707704903
11,devarkonda,16.7,78.9333,67.33,90,76,6.02,IN,1707704903
12,northam,51.0333,-4.2167,44.65,89,19,9.6,GB,1707704554
13,dudinka,69.4058,86.1778,-35.32,99,21,4.0,RU,1707704518
14,indiana,40.0003,-86.2503,39.42,77,0,0.0,US,1707704903
15,petropavlovsk-kamchatsky,53.0452,158.6483,10.99,72,0,11.01,RU,1707704511
16,tazovsky,67.4667,78.7,-29.42,100,97,4.65,RU,1707704510
17,akhmim,26.5622,31.745,50.2,25,100,1.36,EG,1707704903
18,bredasdorp,-34.5322,20.0403,63.75,92,1,5.66,ZA,1707704500
19,kavieng,-2.5744,150.7967,84.81,71,100,6.44,PG,1707704904
20,tamalous,36.8376,6.6402,48.99,75,41,9.51,DZ,1707704904
21,ushuaia,-54.8,-68.3,42.46,81,75,26.46,AR,1707704430
22,carnarvon,-24.8667,113.6333,88.47,47,0,12.21,AU,1707704523
23,afaahiti,-17.75,-149.2833,78.67,89,90,17.58,PF,1707704515
24,qaqortoq,60.7167,-46.0333,3.69,69,93,6.08,GL,1707704509
25,aasiaat,68.7098,-52.8699,-16.69,99,96,8.32,GL,1707704496
26,waitangi,-43.9535,-176.5597,59.83,76,79,7.0,NZ,1707704498
27,mili,6.0815,171.735,81.59,79,82,24.92,MH,1707704904
28,port-aux-francais,-49.35,70.2167,42.76,74,8,23.6,TF,1707704501
29,grytviken,-54.2811,-36.5092,40.93,73,2,9.1,GS,1707704493
30,invercargill,-46.4,168.35,64.02,68,92,11.01,NZ,1707704499
31,yuzhno-kurilsk,44.0306,145.8556,22.37,80,97,14.7,RU,1707704905
32,yaren,-0.5472,166.916,83.08,75,97,4.32,NR,1707704905
33,amble,55.3333,-1.5833,38.16,87,1,10.36,GB,1707704905
34,leers,50.6822,3.2443,46.0,86,0,9.22,FR,1707704905
35,conduaga,8.862,117.4893,85.86,57,8,4.65,PH,1707704905
36,enewetak,11.3474,162.3373,79.93,78,100,20.89,MH,1707704511
37,lebu,-37.6167,-73.65,57.87,88,0,15.12,CL,1707704514
38,at-bashi,41.1702,75.8106,8.29,72,8,2.3,KG,1707704905
39,albany,42.6001,-73.9662,36.57,74,94,3.0,US,1707704317
40,umba,66.6871,34.3429,-19.01,100,100,4.34,RU,1707704905
41,whitehorse,60.7161,-135.0538,29.17,43,75,4.61,CA,1707704505
42,yinchuan,38.4681,106.2731,36.77,28,0,6.49,CN,1707704906
43,puerto ayora,-0.7393,-90.3518,80.55,94,26,1.99,EC,1707704501
44,aral,40.5156,81.2636,32.85,54,38,3.74,CN,1707704562
45,iskateley,67.6803,53.1512,-27.98,100,19,4.0,RU,1707704499
46,malango,-2.9627,119.9001,75.04,85,97,1.88,ID,1707704906
47,tiksi,71.6872,128.8694,-31.05,100,100,0.54,RU,1707704495
48,iqaluit,63.7506,-68.5145,-16.31,68,20,5.75,CA,1707704497
49,necochea,-38.5473,-58.7368,70.03,80,0,7.27,AR,1707704906
50,avarua,-21.2078,-159.775,84.25,61,20,12.66,CK,1707704209
51,kourou,5.1552,-52.6478,80.65,86,56,9.1,GF,1707704906
52,colby,39.3958,-101.0524,31.03,69,0,8.05,US,1707704907
53,yellowknife,62.456,-114.3525,5.56,92,20,10.36,CA,1707704499
54,vodnyy,63.5046,53.4095,-12.59,99,98,3.6,RU,1707704907
55,ketchikan,55.3422,-131.6461,42.78,87,20,3.44,US,1707704907
56,puerto natales,-51.7236,-72.4875,44.31,72,80,13.2,CL,1707704497
57,zinjibar,13.1287,45.3807,75.88,79,35,7.38,YE,1707704907
58,qamdo,31.1667,97.2333,18.41,41,4,4.29,CN,1707704561
59,bethel,41.3712,-73.414,42.94,71,0,1.01,US,1707704358
60,alofi,-19.0595,-169.9187,85.89,79,100,9.22,NU,1707704525
61,sotouboua,8.5667,0.9833,81.39,27,2,0.29,TG,1707704907
62,les cayes,18.2,-73.75,72.63,74,2,4.97,HT,1707704907
63,brookings,44.3114,-96.7984,35.19,77,0,9.22,US,1707704823
64,port elizabeth,-33.918,25.5701,66.49,90,0,10.36,ZA,1707704507
65,ust-nera,64.5667,143.2,-23.57,97,56,2.1,RU,1707704509
66,camacupa,-12.0167,17.4833,61.18,96,99,4.0,AO,1707704908
67,chonchi,-42.6128,-73.8092,51.12,79,1,4.74,CL,1707704531
68,punta arenas,-53.15,-70.9167,44.71,70,0,14.97,CL,1707704523
69,ibadan,7.3878,3.8964,80.28,76,7,4.41,NG,1707704908
70,ola,59.5833,151.2833,-2.87,81,100,6.53,RU,1707704238
71,port mathurin,-19.6833,63.4167,81.3,85,99,18.52,MU,1707704504
72,kavaratti,10.5669,72.642,82.0,70,82,9.33,IN,1707704546
73,uray,60.1247,64.7758,-17.12,100,5,5.01,RU,1707704513
74,pacific grove,36.6177,-121.9166,56.43,84,20,5.99,US,1707704513
75,cockburn town,21.4612,-71.1419,76.39,67,5,20.27,TC,1707704519
76,vorgashor,67.5833,63.95,-28.95,100,100,3.53,RU,1707704501
77,jamestown,42.097,-79.2353,33.39,88,100,3.0,US,1707704391
78,hermanus,-34.4187,19.2345,68.81,73,0,10.96,ZA,1707704498
79,adamstown,-25.066,-130.1015,76.35,92,52,20.87,PN,1707704499
80,vadso,70.0744,29.7487,21.36,79,75,3.44,NO,1707704494
81,voinjama,8.4219,-9.7478,67.23,63,0,1.3,LR,1707704909
82,blackmans bay,-43.0167,147.3167,73.53,64,44,1.01,AU,1707704501
83,utrik,11.2278,169.8474,79.09,79,100,23.51,MH,1707704511
84,ribeira grande,38.5167,-28.7,62.78,87,13,25.99,PT,1707704505
85,ixmiquilpan,20.4833,-99.2333,68.9,26,41,7.52,MX,1707704909
86,bubaque,11.2833,-15.8333,79.03,64,0,15.26,GW,1707704909
87,mozhga,56.4447,52.2276,-6.05,99,99,5.5,RU,1707704910
88,sinjai,-5.1241,120.253,83.91,74,87,3.09,ID,1707704910
89,sao paulo de olivenca,-3.3783,-68.8725,75.18,98,88,0.38,BR,1707704910
90,fort st. john,56.2499,-120.8529,30.09,59,75,3.44,CA,1707704535
91,kuchera,26.9839,73.9719,55.02,35,100,7.45,IN,1707704910
92,jacksonville,30.3322,-81.6556,70.03,82,0,5.75,US,1707704192
93,berdigestyakh,62.0989,126.6992,-12.5,96,100,7.56,RU,1707704910
94,varadero,23.1536,-81.2514,70.56,74,93,11.05,CU,1707704706
95,whakatane,-37.9585,176.9854,79.88,56,47,5.01,NZ,1707704550
96,college,64.8569,-147.8028,21.52,75,75,0.0,US,1707704502
97,vandergrift,40.6028,-79.5648,42.87,78,39,3.18,US,1707704910
98,saipan,15.1355,145.701,88.5,55,40,14.97,MP,1707704522
99,kolwezi,-10.7148,25.4667,59.83,95,100,2.21,CD,1707704911
100,hadibu,12.65,54.0333,75.49,77,11,7.2,YE,1707704518
101,fortuna,40.5982,-124.1573,53.65,92,0,0.0,US,1707704534
102,margaret river,-33.95,115.0667,72.55,54,0,15.46,AU,1707704269
103,flin flon,54.7682,-101.865,16.48,99,94,1.83,CA,1707704911
104,kiama,-34.6833,150.8667,85.37,65,0,11.99,AU,1707704911
105,dogondoutchi,13.6393,4.0287,74.08,11,2,9.48,NE,1707704911
106,nar'yan-mar,67.6713,53.087,-27.89,100,19,4.0,RU,1707704503
107,edinburgh of the seven seas,-37.0676,-12.3116,63.37,72,21,17.98,SH,1707704499
108,uturoa,-16.7333,-151.4333,81.99,87,100,24.61,PF,1707704554
109,asau,46.4333,26.4,43.72,75,100,3.85,RO,1707704911
110,rabaul,-4.1967,152.1721,84.15,72,90,13.65,PG,1707704911
111,jesup,31.6074,-81.8854,66.34,94,75,0.0,US,1707704912
112,udachny,66.4167,112.4,-23.48,97,100,6.93,RU,1707704499
113,mbaiki,3.8678,17.9892,73.02,33,100,2.28,CF,1707704912
114,lokossa,6.6387,1.7167,78.35,90,36,5.28,BJ,1707704912
115,jumla,29.2747,82.1838,34.57,39,0,4.36,NP,1707704912
116,spassk-dal'niy,44.5978,132.8211,27.07,75,19,12.33,RU,1707704912
117,creel,27.75,-107.6333,27.68,34,0,5.01,MX,1707704912
118,halden,59.1226,11.3871,24.64,88,100,11.88,NO,1707704912
119,atafu village,-8.5421,-172.5159,82.72,80,100,17.87,TK,1707704504
120,callao,-12.0667,-77.15,81.72,69,0,14.97,PE,1707704913
121,al jawf,29.5,38.75,49.62,70,65,7.96,SA,1707704913
122,kushtia,23.9011,89.1221,65.86,41,10,4.59,BD,1707704913
123,saint-affrique,43.9558,2.8892,39.79,94,100,0.51,FR,1707704913
124,sena madureira,-9.0656,-68.6569,74.62,99,100,1.7,BR,1707704913
125,ixtapa,20.7,-105.2,74.43,64,75,5.75,MX,1707704913
126,kayangel,8.0823,134.7173,81.72,83,100,20.56,PW,1707704532
127,susuman,62.7833,148.1667,-27.02,99,96,1.01,RU,1707704510
128,besisahar,28.2313,84.3761,59.04,18,0,6.24,NP,1707704913
129,shimokizukuri,40.8061,140.3861,40.51,70,99,20.54,JP,1707704913
130,kruisfontein,-34.0033,24.7314,59.88,86,61,6.98,ZA,1707704540
131,buala,-8.145,159.5921,85.35,69,83,9.31,SB,1707704914
132,port lincoln,-34.7333,135.8667,76.42,56,0,6.64,AU,1707704521
133,washougal,45.5826,-122.3534,52.75,75,100,8.01,US,1707704914
134,akureyri,65.6835,-18.0878,31.93,93,100,14.97,IS,1707704547
135,amga,60.8953,131.9608,-17.64,96,88,2.62,RU,1707704513
136,lihue,21.9789,-159.3672,78.04,70,75,6.91,US,1707704518
137,vila franca do campo,37.7167,-25.4333,64.89,99,78,19.01,PT,1707704516
138,turi,40.9173,17.0212,46.74,90,0,4.61,IT,1707704914
139,mount pearl,47.5166,-52.7813,34.32,93,100,6.91,CA,1707704521
140,syktyvkar,61.6764,50.8099,-0.09,91,20,4.47,RU,1707704914
141,sisimiut,66.9395,-53.6735,-10.07,90,32,6.58,GL,1707704529
142,georgetown,5.4112,100.3354,84.15,58,20,16.11,MY,1707704522
143,anadyr,64.75,177.4833,-10.7,69,100,15.66,RU,1707704505
144,olonkinbyen,70.9221,-8.7187,27.64,63,100,11.86,SJ,1707704509
145,krivosheino,57.3431,83.9261,-4.13,96,97,7.43,RU,1707704915
146,rio grande,-32.035,-52.0986,75.94,93,9,13.96,BR,1707704832
147,toliara,-23.35,43.6667,77.9,88,100,9.86,MG,1707704531
148,ngerengere,-6.75,38.1167,74.01,97,100,3.11,TZ,1707704915
149,san patricio,28.017,-97.5169,69.66,62,0,11.1,US,1707704501
150,manta,-0.95,-80.7333,80.01,83,75,15.01,EC,1707704915
151,saurimo,-9.6608,20.3916,66.22,92,100,0.85,AO,1707704915
152,ilulissat,69.2167,-51.1,-2.18,65,75,12.66,GL,1707704492
153,nemuro,43.3236,145.575,26.82,67,14,13.02,JP,1707704557
154,salekhard,66.53,66.6019,-26.77,93,10,5.08,RU,1707704915
155,vilaka,57.1846,27.6722,29.66,98,100,6.15,LV,1707704915
156,kamina,-8.7386,24.9906,64.36,95,100,0.18,CD,1707704916
157,tokar,18.4254,37.729,70.68,66,69,8.23,SD,1707704916
158,saudarkrokur,65.7461,-19.6394,32.4,83,100,21.03,IS,1707704553
159,beledweyne,4.7358,45.2036,74.66,78,100,9.08,SO,1707704916
160,isangel,-19.55,169.2667,85.33,75,13,9.1,VU,1707704916
161,bilibino,68.0546,166.4372,-32.33,97,49,1.54,RU,1707704509
162,sao gabriel,-30.3364,-54.32,75.22,85,65,5.41,BR,1707704916
163,viedma,-40.8135,-62.9967,81.19,28,100,7.11,AR,1707704525
164,mahajanga,-15.7167,46.3167,77.02,94,40,2.3,MG,1707704917
165,kazerun,29.6195,51.6541,50.65,70,100,1.3,IR,1707704917
166,bayganin,48.6947,55.8742,7.57,84,44,11.16,KZ,1707704917
167,pariaman,-0.619,100.12,89.65,64,45,4.79,ID,1707704917
168,broken hill,-31.95,141.4333,93.81,23,0,5.91,AU,1707704628
169,mejit,10.2753,170.8646,79.63,74,17,23.26,MH,1707704558
170,badger,64.8,-147.5333,21.45,81,0,0.0,US,1707704514
171,tamandare,-8.7597,-35.1047,79.74,83,100,8.28,BR,1707704917
172,longyearbyen,78.2186,15.6401,17.44,73,75,10.36,SJ,1707704506
173,kapa'a,22.0752,-159.319,78.78,70,75,6.91,US,1707704546
174,kyadabek,40.5656,45.8161,33.84,44,20,8.12,AZ,1707704917
175,leh,34.1667,77.5833,1.92,57,12,2.13,IN,1707704917
176,gaoual,11.75,-13.2,75.2,60,0,2.37,GN,1707704918
177,namibe,-15.1961,12.1522,78.93,77,94,6.11,AO,1707704533
178,jayapura,-2.5333,140.7,88.99,75,99,5.5,ID,1707704511
179,pangai,-19.8,-174.35,86.11,84,75,9.22,TO,1707704918
180,nola,40.922,14.5329,51.64,91,100,8.08,IT,1707704918
181,kununurra,-15.7667,128.7333,85.98,74,75,8.05,AU,1707704290
182,codrington,-38.2667,141.9667,78.28,47,0,9.48,AU,1707704494
183,desaguadero,-16.5656,-69.0417,51.96,74,100,9.78,PE,1707704918
184,swift current,50.2834,-107.8014,23.81,86,0,18.41,CA,1707704558
185,selfoss,63.9331,-20.9971,26.85,80,100,11.61,IS,1707704503
186,san antonio de pale,-1.4014,5.6325,82.78,80,27,3.27,GQ,1707704918
187,ghat,24.9647,10.1728,64.04,24,0,6.22,LY,1707704919
188,shihezi,44.3,86.0333,21.42,80,97,7.07,CN,1707704919
189,katsuura,35.1333,140.3,44.8,68,44,12.28,JP,1707704524
190,gaalkacyo,6.7697,47.4308,70.07,92,49,7.47,SO,1707704919
191,tura,25.5198,90.2201,66.0,40,2,1.92,IN,1707704540
192,san jose de las matas,19.3391,-70.9382,66.49,79,0,5.46,DO,1707704919
193,port saint john's,-31.6229,29.5448,67.71,89,21,11.97,ZA,1707704568
194,coracora,-15.0333,-73.7833,55.78,67,100,2.91,PE,1707704919
195,cedeira,43.6797,-8.0209,57.83,93,65,41.09,ES,1707704919
196,hirara,24.8,125.2833,66.47,48,0,11.5,JP,1707704919
197,hamilton,39.1834,-84.5333,41.99,73,0,9.22,US,1707704463
198,bardai,11.65,7.2333,71.22,17,32,8.43,NG,1707704920
199,isafjordur,66.0755,-23.124,35.01,77,100,33.26,IS,1707704503
200,crane,31.3974,-102.3501,40.57,71,100,17.78,US,1707704548
201,talnakh,69.4865,88.3972,-32.12,91,22,3.56,RU,1707704500
202,geraldton,-28.7667,114.6,79.21,69,0,13.8,AU,1707704500
203,acapulco de juarez,16.8634,-99.8901,80.42,69,20,11.5,MX,1707704388
204,la passe,45.5549,-0.8967,45.99,89,100,9.08,FR,1707704513
205,labytnangi,66.6572,66.4183,-20.31,87,12,8.39,RU,1707704920
206,floriano,-6.7669,-43.0225,73.85,86,90,2.8,BR,1707704496
207,pandan,14.0453,124.1694,76.77,74,95,20.11,PH,1707704520
208,dzhambeyty,50.2536,52.595,2.55,83,100,9.57,KZ,1707704920
209,arafat,21.3594,39.9664,68.94,29,49,4.05,SA,1707704920
210,xinyuan,37.3,99.0,11.32,50,5,5.68,CN,1707704921
211,wailua homesteads,22.0669,-159.378,77.43,71,75,6.91,US,1707704499
212,carutapera,-1.195,-46.02,76.06,95,61,5.41,BR,1707704921
213,kodiak,57.79,-152.4072,35.11,80,100,12.66,US,1707704497
214,saint-georges,12.0564,-61.7485,80.28,78,20,13.8,GD,1707704878
215,adrar,20.5022,-10.0711,66.15,35,0,8.08,MR,1707704921
216,alice springs,-23.7,133.8833,94.21,33,100,1.01,AU,1707704511
217,vilyuchinsk,52.9306,158.4028,12.47,65,6,6.26,RU,1707704527
218,den burg,53.0542,4.7972,44.98,94,100,9.22,NL,1707704921
219,laguna,38.421,-121.4238,54.91,62,0,3.44,US,1707704555
220,constantia,44.1833,28.65,52.48,72,100,21.27,RO,1707704553
221,hawaiian paradise park,19.5933,-154.9731,79.88,75,75,14.97,US,1707704434
222,pirapozinho,-22.2753,-51.5,83.68,65,0,6.91,BR,1707704921
223,gdov,58.7406,27.8122,24.13,96,100,9.31,RU,1707704922
224,hasaki,35.7333,140.8333,48.29,58,100,21.7,JP,1707704525
225,tyukalinsk,55.8732,72.1967,-11.6,98,34,8.66,RU,1707704922
226,praia da vitoria,38.7333,-27.0667,62.85,88,40,29.21,PT,1707704523
227,port alfred,-33.5906,26.891,66.18,85,100,3.0,ZA,1707704521
228,bucerias,20.75,-105.3333,75.18,64,75,5.75,MX,1707704772
229,lincoln,40.8,-96.667,34.02,73,0,3.44,US,1707704746
230,luanda,-8.8368,13.2343,78.8,89,40,5.75,AO,1707704922
231,nova vicosa,-17.8919,-39.3719,77.43,89,18,5.06,BR,1707704553
232,lazaro cardenas,17.9583,-102.2,73.51,79,0,3.71,MX,1707704787
233,al muwayh,22.4333,41.7583,53.51,25,67,9.33,SA,1707704922
234,douentza,14.9951,-2.9517,69.91,10,0,1.95,ML,1707704923
235,golyshmanovo,56.3979,68.3728,-13.11,98,6,6.6,RU,1707704652
236,alaghsas,17.0187,8.0168,68.52,10,0,7.72,NE,1707704815
237,cestos city,5.46,-9.5828,82.54,83,99,9.01,LR,1707704923
238,forster,-32.1667,152.5167,81.28,70,73,9.44,AU,1707704923
239,abu jibeha,11.4562,31.2285,70.5,12,12,5.57,SD,1707704923
240,sovetskaya gavan',48.9723,140.2878,19.11,67,99,5.14,RU,1707704923
241,yanbu,24.0891,38.0637,57.24,58,0,0.0,SA,1707704923
242,kili,5.6439,169.1211,81.54,82,98,21.39,MH,1707704923
243,st. john's,47.5649,-52.7093,35.15,93,100,6.91,CA,1707704544
244,lyantor,61.6195,72.1555,-8.54,97,96,7.78,RU,1707704923
245,saint-philippe,-21.3585,55.7679,76.59,92,67,3.4,RE,1707704924
246,kingston,17.997,-76.7936,79.75,74,20,18.41,JM,1707704534
247,sur,22.5667,59.5289,71.87,80,70,10.2,OM,1707704524
248,fale old settlement,-9.3852,-171.2468,83.12,81,100,16.73,TK,1707704567
249,nikolayevsk-on-amure,53.1406,140.73,8.51,88,100,2.1,RU,1707704508
250,tomatlan,19.9333,-105.25,69.69,68,100,2.01,MX,1707704924
251,la gi,10.6667,107.7833,79.11,59,5,13.2,VN,1707704924
252,sao joao evangelista,-18.5478,-42.7633,64.58,98,10,0.92,BR,1707704924
253,revda,56.801,59.9303,1.36,95,100,9.46,RU,1707704924
254,inhambane,-23.865,35.3833,77.74,62,89,12.57,MZ,1707704924
255,darwin,-12.4611,130.8418,76.98,100,100,4.61,AU,1707704528
256,biloela,-24.4167,150.5,91.6,36,36,11.12,AU,1707704925
257,kaiapoi,-43.3783,172.6401,67.55,59,100,11.5,NZ,1707704925
258,magole,-6.3667,37.3667,71.1,97,100,2.98,TZ,1707704925
259,serdar,38.9764,56.2757,48.61,51,22,2.59,TM,1707704925
260,tamanrasset,22.785,5.5228,53.51,9,0,8.05,DZ,1707704515
261,balykshi,47.0667,51.8667,30.2,100,100,15.66,KZ,1707704925
262,las vegas,36.175,-115.1372,50.27,40,20,24.0,US,1707704636
263,ust-tsilma,65.441,52.1498,-12.39,99,100,3.0,RU,1707704361
264,shahpur,16.7,76.8333,69.42,63,69,9.08,IN,1707704925
265,naze,28.3667,129.4833,59.92,55,2,9.95,JP,1707704925
266,newnham,-41.3833,147.1333,85.15,24,55,17.27,AU,1707704926
267,mossel bay,-34.1831,22.146,67.73,80,0,5.01,ZA,1707704926
268,kievka,50.2619,71.5514,-8.27,97,6,7.99,KZ,1707704926
269,tres palos,18.1833,-101.6167,67.73,91,0,4.52,MX,1707704926
270,fisterra,42.9049,-9.2629,55.74,84,60,27.83,ES,1707704503
271,san agustin de valle fertil,-30.6335,-67.4682,82.02,61,81,15.1,AR,1707704926
272,andergrove,-21.0833,149.1833,89.65,65,24,10.42,AU,1707704926
273,portland,45.5234,-122.6762,52.88,77,100,11.01,US,1707704646
274,newman,37.3138,-121.0208,57.54,71,81,3.74,US,1707704506
275,mugia,43.1041,-9.2179,55.9,87,59,27.0,ES,1707704926
276,fort bragg,35.139,-79.006,62.15,92,40,0.0,US,1707704497
277,greenville,35.6127,-77.3663,61.12,95,100,3.44,US,1707704467
278,turkmenbasy,40.0222,52.9552,45.37,70,0,9.22,TM,1707704927
279,lompoc,34.6391,-120.4579,55.78,81,0,6.91,US,1707704502
280,thunder bay,48.4001,-89.3168,24.78,68,100,5.75,CA,1707704552
281,new norfolk,-42.7826,147.0587,74.71,25,84,3.83,AU,1707704353
282,shouguang,36.88,118.7375,50.02,51,0,8.03,CN,1707704927
283,san pablo,14.0669,121.3258,78.8,60,78,12.55,PH,1707704927
284,ingeniero jacobacci,-41.3427,-69.5448,58.98,45,0,18.32,AR,1707704927
285,east london,-33.0153,27.9116,66.34,81,53,10.78,ZA,1707704502
286,ratnagiri,16.9833,73.3,72.72,46,27,6.89,IN,1707704854
287,uvinza,-5.1036,30.3911,67.05,96,98,0.43,TZ,1707704927
288,timbuktu,16.7735,-3.0074,71.71,8,0,8.72,ML,1707704928
289,horta,38.5333,-28.6333,62.02,88,23,25.01,PT,1707704928
290,kenai,60.5544,-151.2583,33.89,84,100,20.71,US,1707704928
291,hithadhoo,-0.6,73.0833,80.82,77,59,3.44,MV,1707704520
292,flying fish cove,-10.4217,105.6791,83.88,74,40,1.14,CX,1707704552
293,dunedin,-45.8742,170.5036,61.38,61,55,8.93,NZ,1707704928
294,gadzhiyevo,69.2551,33.3362,6.06,94,100,7.52,RU,1707704514
295,athens,37.9795,23.7162,63.32,73,75,23.02,GR,1707704645
296,antigonish,45.6169,-61.9986,37.81,91,100,9.42,CA,1707704928
297,sivrihisar,39.4504,31.5341,44.38,70,100,7.29,TR,1707704928
298,machali,-34.1833,-70.6667,67.8,47,20,3.27,CL,1707704928
299,ballycastle,55.2044,-6.243,38.01,98,99,17.16,GB,1707704929
300,truro,50.2653,-5.0544,43.88,82,75,5.75,GB,1707704929
301,stephenville,32.2207,-98.2023,39.74,93,100,11.5,US,1707704262
302,tocopilla,-22.092,-70.1979,73.6,73,100,8.03,CL,1707704929
303,prado,-17.3411,-39.2208,77.2,90,19,4.5,BR,1707704561
304,timimoun,29.2639,0.231,59.38,36,0,4.61,DZ,1707704929
305,tucuma,-0.1833,-50.05,76.39,94,99,6.4,BR,1707704929
306,deqen,29.9618,90.7188,24.78,33,0,1.25,CN,1707704929
307,pagsanghan,11.9657,124.7212,80.83,73,55,14.09,PH,1707704929
308,daru,-9.0763,143.2092,86.23,66,100,4.27,PG,1707704930
309,kharp,66.8014,65.8081,-21.42,90,17,10.56,RU,1707704548
310,kailua-kona,19.6406,-155.9956,78.76,73,75,6.91,US,1707704290
311,suva,-18.1416,178.4415,90.88,66,75,9.22,FJ,1707704829
312,salinopolis,-0.6136,-47.3561,78.84,88,94,9.55,BR,1707704548
313,onega,63.9061,38.1404,-16.01,100,91,3.51,RU,1707704930
314,mount gambier,-37.8333,140.7667,89.42,17,0,5.17,AU,1707704561
315,egilsstadir,65.2653,-14.3948,33.71,93,100,21.85,IS,1707704559
316,medina,24.4686,39.6142,59.43,31,0,4.61,SA,1707704560
317,mount isa,-20.7333,139.5,92.97,43,40,10.36,AU,1707704492
318,remire-montjoly,4.9167,-52.2667,80.64,83,75,5.75,GF,1707704512
319,tindouf,27.6711,-8.1474,59.45,47,0,5.75,DZ,1707704930
320,coquimbo,-29.9533,-71.3436,64.13,88,0,6.91,CL,1707704404
321,prejmer,45.7167,25.7667,50.05,83,100,0.94,RO,1707704930
322,kantunilkin,21.0917,-87.45,74.75,88,38,5.77,MX,1707704931
323,bridgewater,44.3835,-64.5155,38.1,85,100,4.61,CA,1707704702
324,bikin,46.8161,134.26,16.92,87,97,8.7,RU,1707704872
325,olyokminsk,60.3736,120.4264,-11.81,93,63,2.93,RU,1707704547
326,surazh,53.0175,32.3918,33.4,99,100,9.13,RU,1707704931
327,pisco,-13.7,-76.2167,75.25,78,0,8.05,PE,1707704532
328,happy valley-goose bay,53.3168,-60.3315,32.31,100,75,4.61,CA,1707704565
329,lata,40.1629,-8.3327,58.08,96,99,8.12,PT,1707704931
330,nguigmi,14.2495,13.1092,70.74,18,1,9.66,NE,1707704931
331,luderitz,-26.6481,15.1594,64.44,88,1,4.29,NA,1707704931
332,maine soroa,13.2114,12.0241,70.41,10,0,9.08,NE,1707704931
333,houghton,47.1219,-88.569,30.81,77,20,13.8,US,1707704544
334,kinkala,-4.3614,14.7644,72.64,91,100,1.79,CG,1707704932
335,khasavyurt,43.25,46.5881,49.17,57,99,3.76,RU,1707704932
336,jember,-8.166,113.7032,84.65,72,68,2.64,ID,1707704932
337,chui,-33.6971,-53.4616,75.51,92,0,5.79,UY,1707704516
338,shizuishan,39.2333,106.7694,36.48,26,0,4.74,CN,1707704932
339,buenaventura,3.8801,-77.0312,77.09,96,27,2.86,CO,1707704932
340,kalmunai,7.4167,81.8167,78.87,83,48,11.21,LK,1707704523
341,cabo san lucas,22.8909,-109.9124,68.31,72,20,5.75,MX,1707704932
342,alesund,62.4723,6.1549,41.14,56,75,14.97,NO,1707704932
343,mahibadhoo,3.7833,72.9667,82.35,79,100,20.0,MV,1707704932
344,isernia,41.6002,14.2382,43.54,95,53,2.68,IT,1707704933
345,sumenep,-7.0167,113.8667,83.71,75,87,7.56,ID,1707704933
346,pankovka,58.5,31.1999,22.1,97,100,4.63,RU,1707704933
347,rabo de peixe,37.8,-25.5833,63.99,99,20,16.11,PT,1707704568
348,turiacu,-1.6633,-45.3717,76.23,94,59,4.34,BR,1707704933
349,hanko,59.8333,22.95,22.84,86,100,32.99,FI,1707704886
350,la rioja,42.25,-2.5,33.58,83,95,2.26,ES,1707704933
351,usinsk,65.9939,57.5281,-29.92,100,98,5.01,RU,1707704933
352,balsas,-7.5325,-46.0356,73.67,86,100,2.1,BR,1707704933
353,abu ghurayb,33.3083,44.185,48.15,81,0,6.91,IQ,1707704933
354,totness,5.8833,-56.3167,78.94,83,9,14.14,SR,1707704866
355,kone,-21.0595,164.8658,85.71,69,67,7.11,NC,1707704543
356,arteche,12.2645,125.4048,76.89,84,99,17.31,PH,1707704507
357,sal rei,16.1833,-22.9167,72.59,85,19,9.57,CV,1707704934
358,santa rosalia,27.3167,-112.2833,53.04,62,0,7.81,MX,1707704934
359,kerikeri,-35.2268,173.9474,70.03,63,9,10.49,NZ,1707704496
360,manokwari,-0.8667,134.0833,83.48,70,50,7.11,ID,1707704498
361,sao joao da barra,-21.6403,-41.0511,74.61,93,0,5.68,BR,1707704561
362,fairfield glade,36.0004,-84.8863,49.6,98,100,3.58,US,1707704934
363,natal,-5.795,-35.2094,77.65,94,100,12.66,BR,1707704934
364,westport,41.1415,-73.3579,44.58,64,20,4.61,US,1707704892
365,la junta,37.985,-103.5438,26.89,86,0,11.5,US,1707704935
366,puttalam,8.0362,79.8283,74.95,81,85,14.34,LK,1707704935
367,bandon,51.7469,-8.7425,36.99,88,1,6.44,IE,1707704935
368,hammerfest,70.6634,23.6821,28.85,93,75,10.36,NO,1707704504
369,nuuk,64.1835,-51.7216,7.41,66,57,13.8,GL,1707704493
370,mirny,62.5353,113.9611,-22.77,67,100,7.0,RU,1707704935
371,aleksandrovsk-sakhalinskiy,50.8975,142.1561,10.56,77,99,15.46,RU,1707704935
372,metahara,8.9,39.9167,75.43,68,80,8.08,ET,1707704935
373,djibo,14.1022,-1.6306,74.98,9,0,8.34,BF,1707704935
374,qianjiang,30.4151,112.8859,54.79,61,12,11.23,CN,1707704935
375,mastung,29.7994,66.845,46.76,46,100,1.7,PK,1707704935
376,karachi,24.9056,67.0822,58.82,47,40,3.44,PK,1707704881
377,kargasok,59.0556,80.8572,-4.02,95,100,9.73,RU,1707704536
378,sault ste. marie,46.5168,-84.3333,28.22,78,100,6.91,CA,1707704936
379,lepsy,46.235,78.9456,18.77,75,100,7.34,KZ,1707704936
380,whitby,54.4877,-0.615,40.32,87,0,1.01,GB,1707704873
381,korsholm,63.1142,21.6822,1.35,85,0,3.44,FI,1707704936
382,sola,-13.8833,167.55,82.31,74,94,13.78,VU,1707704936
383,peace river,56.2501,-117.286,25.11,74,20,8.05,CA,1707704936
384,burabay,53.0838,70.3138,-7.08,99,96,8.84,KZ,1707704936
385,spanish springs,39.6491,-119.7074,40.19,56,0,0.0,US,1707704936
386,talcahuano,-36.7167,-73.1167,60.48,77,0,9.22,CL,1707704936
387,pemangkat,1.1667,108.9667,80.53,82,100,19.39,ID,1707704937
388,christchurch,-43.5333,172.6333,67.48,54,100,11.5,NZ,1707704490
389,takoradi,4.8845,-1.7554,80.26,89,99,3.29,GH,1707704937
390,zhaobaoshan,29.9695,121.6875,55.42,57,0,9.84,CN,1707704937
391,garoua,9.3,13.4,79.93,21,4,1.48,CM,1707704769
392,yulinshi,38.2906,109.7494,31.55,51,0,3.78,CN,1707704937
393,mata-utu,-13.2816,-176.1745,83.16,81,84,19.75,WF,1707704937
394,gizo,-8.103,156.8419,82.83,77,62,13.11,SB,1707704503
395,uthal,25.8072,66.6219,68.52,41,100,2.15,PK,1707704937
396,wuhai,39.6647,106.8122,36.77,25,0,5.46,CN,1707704937
397,honefoss,60.168,10.2565,22.93,95,100,5.79,NO,1707704937
398,vila velha,-20.3297,-40.2925,76.95,91,40,5.75,BR,1707704938
399,santo antonio da platina,-23.295,-50.0772,77.45,45,83,5.35,BR,1707704938
400,illizi,26.4833,8.4667,58.8,35,5,4.81,DZ,1707704561
401,kapuskasing,49.4169,-82.4331,17.69,92,100,1.14,CA,1707704508
402,aykhal,66.0,111.5,-26.46,98,100,8.86,RU,1707704938
403,holualoa,19.6228,-155.9522,75.04,74,75,6.91,US,1707704504
404,san carlos de bariloche,-41.1456,-71.3082,56.95,44,20,12.66,AR,1707704938
405,nova sintra,14.8667,-24.7167,68.7,77,0,12.41,CV,1707704529
406,nogliki,51.8333,143.1667,4.33,84,100,7.0,RU,1707704938
407,vilyuysk,63.7553,121.6247,-17.0,96,100,11.01,RU,1707704938
408,ambam,2.3833,11.2833,71.31,99,100,1.9,CM,1707704938
409,palu,-0.8917,119.8707,83.25,86,88,1.7,ID,1707704939
410,xai-xai,-25.0519,33.6442,75.54,65,74,9.37,MZ,1707704939
411,mananara,-16.1667,49.7667,77.0,89,100,5.99,MG,1707704939
412,lebyazh'ye,55.2689,66.4947,-6.5,97,12,8.3,RU,1707704939
413,saldanha,-33.0117,17.9442,66.25,90,0,11.52,ZA,1707704502
414,ta`u,-14.2336,-169.5144,83.64,80,100,20.29,AS,1707704566
415,lospalos,-8.5186,127.0025,82.15,72,100,14.34,TL,1707704518
416,alamosa,37.4695,-105.87,21.18,79,0,4.61,US,1707704939
417,berezovyy,51.6667,135.7,16.57,68,100,4.12,RU,1707704939
418,el granada,37.5027,-122.4694,56.98,84,0,11.5,US,1707704568
419,buarcos,40.166,-8.8768,61.66,75,84,14.27,PT,1707704940
420,lander,42.833,-108.7307,25.61,66,100,0.0,US,1707704940
421,gerash,27.6652,54.1371,50.14,64,100,1.16,IR,1707704940
422,salazie,-21.0273,55.539,74.82,74,0,6.91,RE,1707704940
423,olinda,-8.0089,-34.8553,83.93,74,75,11.5,BR,1707704536
424,sedziszow malopolski,50.0707,21.7006,52.11,90,97,9.31,PL,1707704940
425,haiku-pauwela,20.9219,-156.3051,79.16,70,40,11.5,US,1707704343
426,makubetsu,45.3714,141.8211,30.81,55,40,17.27,JP,1707704940
427,gordonvale,-17.0936,145.7842,92.95,71,33,5.99,AU,1707704940
428,kawalu,-7.3817,108.2082,80.76,76,69,0.47,ID,1707704940
429,ar ruways,24.1103,52.7306,65.84,83,38,10.6,AE,1707704941
430,conception bay south,47.4999,-52.9981,34.92,94,100,7.61,CA,1707704562
431,lubao,14.9167,120.55,82.47,59,63,21.39,PH,1707704941
432,peniche,39.3558,-9.3811,62.11,96,57,17.05,PT,1707704510
433,itaituba,-4.2761,-55.9836,74.1,98,70,2.53,BR,1707704552
434,al hazm,16.1641,44.7769,67.23,65,65,3.38,YE,1707704941
435,bikenibeu village,1.3673,173.1241,89.56,70,75,9.22,KI,1707704511
436,sao gabriel da cachoeira,-0.1303,-67.0892,75.06,99,98,4.03,BR,1707704941
437,alappuzha,9.49,76.3264,75.97,70,6,8.08,IN,1707704763
438,poronaysk,49.2167,143.1167,8.71,85,98,4.07,RU,1707704942
439,aroma,15.8167,36.1333,68.13,61,37,7.81,SD,1707704942
440,nelson bay,-32.7167,152.15,85.08,62,7,4.27,AU,1707704515
441,martaban,16.5314,97.6111,79.75,53,39,5.23,MM,1707704942
442,itamaraca,-7.7478,-34.8256,84.25,79,59,9.55,BR,1707704942
443,bandarbeyla,9.4942,50.8122,77.9,73,100,7.45,SO,1707704942
444,dzilam gonzalez,21.2833,-88.9333,78.78,75,0,20.58,MX,1707704942
445,bel ombre,-4.6167,55.4167,82.24,74,75,11.5,SC,1707704942
446,priob'ye,62.5206,65.5964,-27.98,100,43,3.18,RU,1707704943
447,puerto baquerizo moreno,-0.9,-89.6,79.02,88,56,11.16,EC,1707704546
448,smithers,54.7804,-127.1743,23.32,100,100,0.0,CA,1707704516
449,castillos,-34.1667,-53.8333,74.75,91,0,6.76,UY,1707704793
450,campo gallo,-26.5833,-62.85,87.42,51,82,7.45,AR,1707704943
451,klyuchi,52.2667,79.1667,5.25,87,100,15.99,RU,1707704516
452,guarapari,-20.6667,-40.4975,76.89,92,1,6.4,BR,1707704943
453,howrah,22.5892,88.3103,66.2,72,75,3.44,IN,1707704788
454,golmarmara,38.7139,27.9142,53.31,71,100,6.22,TR,1707704943
455,colares,38.7992,-9.4469,63.34,98,100,21.99,PT,1707704944
456,bathsheba,13.2167,-59.5167,79.41,78,20,18.41,BB,1707704944
457,beckingen,49.4,6.7,45.57,92,99,10.02,DE,1707704944
458,wynyard,-41.0,145.7167,69.4,61,93,10.51,AU,1707704525
459,taro,-8.3862,115.28,78.85,78,99,2.35,ID,1707704944
460,kilju,40.9642,129.3278,33.69,53,0,5.46,KP,1707704944
461,bokovskaya,49.229,41.8306,32.86,99,100,9.37,RU,1707704945
462,enoch,37.7733,-113.0244,28.65,74,0,5.75,US,1707704946
463,fortuna foothills,32.6578,-114.4119,58.48,33,0,6.91,US,1707704946
464,kendari,-3.945,122.4989,82.71,77,85,3.38,ID,1707704946
465,margate,51.3813,1.3862,42.69,90,95,4.0,GB,1707704815
466,keflavik,64.0049,-22.5624,28.83,80,0,11.5,IS,1707704504
467,urengoy,65.9667,78.3667,-24.88,99,98,6.15,RU,1707704947
468,sitka,57.0531,-135.33,39.09,81,100,11.5,US,1707704496
469,pont rouge,48.8833,-72.0825,25.09,93,69,5.32,CA,1707704947
470,kousseri,12.0769,15.0306,72.95,37,0,9.04,CM,1707704947
471,karungdong,5.8844,121.263,83.82,64,19,9.31,PH,1707704947
472,lautoka,-17.6167,177.4667,84.06,84,75,17.27,FJ,1707704948
473,pontes e lacerda,-15.2261,-59.3353,74.62,96,100,2.89,BR,1707704887
474,brisas de zicatela,15.8369,-97.0419,81.12,65,75,5.75,MX,1707704948
475,wau,7.7029,27.9953,80.64,18,53,7.76,SS,1707704948
476,cherlak,54.155,74.8055,-4.97,97,94,11.63,RU,1707704948
477,palmer,42.1584,-72.3287,38.75,76,20,8.05,US,1707704561
478,lucheng,31.2336,117.2806,53.24,62,0,13.29,CN,1707704948
479,sibolga,1.7427,98.7792,83.68,62,12,3.94,ID,1707704948
480,copala,16.65,-98.9833,75.94,81,1,6.67,MX,1707704948
481,fauske,67.2588,15.3918,23.04,68,11,10.42,NO,1707704948
482,demyansk,57.643,32.466,28.96,97,100,3.98,RU,1707704949
483,tibanbang,6.6315,126.1055,79.61,77,28,10.29,PH,1707704949
484,colonia,50.9333,6.95,48.06,85,100,8.05,DE,1707704506
485,ibiza,38.9088,1.433,57.22,73,0,16.11,ES,1707704949
486,tolanaro,-25.0319,46.9987,80.67,83,40,13.8,MG,1707704506
487,torres,-29.3353,-49.7269,77.83,93,46,6.35,BR,1707704949
488,dryden,49.7833,-92.7503,17.89,93,40,2.3,CA,1707704949
489,leninskoye,41.7589,69.3864,35.98,95,98,4.12,KZ,1707704950
490,leticia,-4.2153,-69.9406,75.25,100,20,2.3,CO,1707704951
491,piti village,13.4626,144.6933,86.88,65,40,18.41,GU,1707704961
492,tabas,33.5959,56.9244,52.38,28,58,1.9,IR,1707704971
493,karratha,-20.7377,116.8463,95.43,34,0,6.13,AU,1707704495
494,boundiali,9.5217,-6.4869,75.58,20,1,1.5,CI,1707704971
495,la ronge,55.1001,-105.2842,34.05,60,75,12.66,CA,1707704520
496,gisborne,-38.6533,178.0042,65.35,54,6,12.01,NZ,1707704971
497,antalaha,-14.9003,50.2788,77.2,88,100,6.02,MG,1707704566
498,embi,48.8264,58.1442,-8.43,90,18,5.7,KZ,1707704971
499,dolinsk,47.35,142.8,23.92,71,12,8.79,RU,1707704971
500,bonthe,7.5264,-12.505,78.28,88,7,6.46,SL,1707704972
501,taltal,-25.4,-70.4833,69.58,83,52,4.56,CL,1707704972
502,rongelap,11.1635,166.8941,79.12,78,85,22.53,MH,1707704560
503,kirkuk,35.4681,44.3922,53.83,59,0,4.41,IQ,1707704975
504,humberto de campos,-2.5983,-43.4611,76.75,93,94,3.29,BR,1707704975
505,siem reap,13.5,104.0,79.03,49,85,5.7,KH,1707704976
506,matthew town,20.95,-73.6667,75.96,71,1,17.83,BS,1707704976
507,cova figueira,14.8905,-24.2934,69.67,77,0,8.19,CV,1707704976
508,abidjan,5.3094,-4.0197,84.16,89,40,6.91,CI,1707704822
509,la'ie,21.6477,-157.9253,79.05,66,42,1.99,US,1707704976
510,ambovombe,-25.1667,46.0833,74.93,92,89,3.94,MG,1707704976
511,kunduz,36.75,68.75,51.48,35,100,1.19,AF,1707704976
512,mana,5.6592,-53.7767,78.73,82,40,11.27,GF,1707704976
513,kingscliff,-28.2667,153.5667,84.0,61,40,17.27,AU,1707704520
514,pallasovka,50.05,46.8833,22.12,94,100,12.17,RU,1707704977
515,morwa,22.9,73.8333,60.96,42,100,8.63,IN,1707704977
516,nuku'alofa,-21.1333,-175.2,82.74,94,100,13.8,TO,1707704977
517,soure,-0.7167,-48.5233,75.29,97,97,4.68,BR,1707704977
518,nea alikarnassos,35.3333,25.1667,63.48,69,20,11.5,GR,1707704977
519,arawa,-6.2132,155.5367,82.83,77,51,9.1,PG,1707704977
520,al muharraq,26.2572,50.6119,62.56,81,0,1.14,BH,1707704977
521,touros,-5.1989,-35.4608,80.71,81,25,13.33,BR,1707704977
522,djenne,13.9061,-4.5533,76.15,9,0,8.43,ML,1707704977
523,pacasmayo,-7.4006,-79.5714,74.64,86,100,13.06,PE,1707704978
524,tosontsengel,48.7567,98.2839,30.11,60,100,29.04,MN,1707704978
525,champerico,14.3,-91.9167,78.35,70,1,5.95,GT,1707704545
526,vernon,50.2581,-119.2691,36.3,92,100,2.3,CA,1707704713
527,ancud,-41.8697,-73.8203,52.07,75,39,5.59,CL,1707704505
528,pasuquin,18.3328,120.6177,82.35,51,20,6.91,PH,1707704978
529,yangjiang,21.85,111.9667,65.95,57,1,12.62,CN,1707704978
530,al khums,32.6486,14.2619,60.13,57,89,7.27,LY,1707704978
531,kitimat,54.0524,-128.6534,32.38,82,16,1.74,CA,1707704978
532,papeete,-17.5333,-149.5667,80.53,89,75,21.85,PF,1707704728
533,keetmanshoop,-26.5833,18.1333,83.32,20,70,3.44,NA,1707704979
534,dumbea,-22.15,166.45,84.16,99,64,9.86,NC,1707704979
535,vryburg,-26.9566,24.7284,64.11,83,0,9.66,ZA,1707704979
536,es senia,35.6478,-0.624,60.78,82,40,11.5,DZ,1707704979
537,novyy urengoy,66.0833,76.6333,-23.44,98,67,8.1,RU,1707704979
538,torit,4.4133,32.5678,83.23,40,58,3.74,SS,1707704979
539,umluj,25.0213,37.2685,67.12,28,0,14.52,SA,1707704979
540,boende,-0.2167,20.8667,78.73,57,97,2.91,CD,1707704979
541,melekeok village,7.4957,134.6367,84.76,79,75,12.66,PW,1707704979
542,banda aceh,5.5577,95.3222,82.2,76,5,25.55,ID,1707704980
543,aswan,24.0934,32.907,56.5,30,0,3.44,EG,1707704980
544,valley city,46.9233,-98.0032,30.72,100,0,11.5,US,1707704980
545,mizdah,31.4451,12.9801,51.19,50,47,8.79,LY,1707704980
546,tralee,52.2704,-9.7026,46.24,62,7,19.8,IE,1707704406
547,matipo,-20.2839,-42.3411,66.34,95,4,3.04,BR,1707704980
548,barra de santo antonio,-9.4047,-35.5072,79.88,90,95,2.64,BR,1707704563
549,gbadolite,4.2833,21.0167,75.61,40,64,2.24,CD,1707704980
550,broome,42.2506,-75.833,33.35,88,0,4.61,US,1707704520
551,issa,53.8705,44.8578,-0.85,92,100,11.25,RU,1707704980
552,chibougamau,49.9168,-74.3659,13.62,85,100,3.44,CA,1707704512
553,manga,11.6636,-1.0731,77.45,10,6,8.01,BF,1707704981
554,tual,-5.6667,132.75,83.84,79,54,18.9,ID,1707704559
555,arar,30.9753,41.0381,46.42,87,34,5.75,SA,1707704981
556,novovyazniki,56.1975,42.1711,12.02,95,98,7.92,RU,1707704981
557,goundam,16.4145,-3.6708,72.18,8,0,6.98,ML,1707704981
558,mahanoro,-19.9,48.8,72.59,99,100,2.68,MG,1707704981
559,adjumani,3.3779,31.7909,76.73,53,26,3.29,UG,1707704981
560,khanbari,27.3747,87.2039,56.59,31,0,2.75,NP,1707704982
561,reggane,26.7158,0.1714,69.12,36,0,4.18,DZ,1707704564
